None
b'$GPGGA,171924.000,3844.7556,S,07236.9213,W,1,6,1.05,98.5,M,20.8,M,,*64\r\n'
b'$GPGSA,A,3,31,29,10,20,16,27,,,,,,,1.39,1.05,0.91*0D\r\n'
b'$GPGSV,3,1,09,26,71,275,,21,68,145,23,20,50,031,37,16,48,229,31*7D\r\n'
b'$GPGSV,3,2,09,51,32,312,32,10,27,007,28,29,22,092,34,27,22,245,20*7F\r\n'
b'$GPGSV,3,3,09,31,14,324,45*43\r\n'
b'$GPRMC,171924.000,A,3844.7556,S,07236.9213,W,1.83,29.26,160119,,,51,32,312,30,10,27,007,29,29,22,092,34,27,22,245,19*76\r\n'
b'$GPGSV,3,3,09,31,14,324,44*42\r\n'
b'$GPRMC,171930.000,A,3844.7576,S,07236.9225,W,0.41,183.71,160119,,,A*6F\r\n'
b',324,44*42\r\n'
b'$GPRMC,171933.000,A,3844.7574,S,07236.9221,W,0.17,148.97,160119,,,A*66\r\n'
b'$GPGGA,171934.000,3844.7572,S,07236.9220,W,1,8,0.99,106.1,M,20.8,M,,*5B\r\n'
b'$GPGSA,A,3,31,29,10,26,20,21,16,27,,,,,1.30,0.99224,W,1,8,0.99,105.0,M,20.8,M,,*5A\r\n'
b'$GPGSA,A,3,31,29,10,26,20,21,16,27,,,,,1.30,0.99,0.83*04\r\n'
b'$GPGSV,3,1,09,26,71,275,1245,18,31,14,324,43*74\r\n'
b'$GPGSV,3,3,09,48,14,289,*4A\r\n'
b'$GPRMC,171943.000,A,3844.7555,S,07236.9230,W,0.22,146.67,160119,,,A*65\r\n'
b'$GPGGA,171944.000,3844.7555,S,07236.9230,W,1,8,0.99,100.8,M,20.8,M,,*57\r\n'
b'$GPGSA,A,3,31,29,10,26,20,21,16,27,,,,,1.30,0.9W,0.22,192.70,160119,,,A*69\r\n'
b'$GPGGA,171951.000,3844.7566,S,07236.9233,W,1,8,0.99,98.7,M,20.8,M,,*6F\r\n'
None
b'$GPGGA,183536.000,3844.7528,S,07236.9232,W,2,8,1.26,108.7,M,20.8,M,0000,0000*5A\r\n'
b'$GPGSA,A,3,16,10,20,26,27,15,21,08,,,,,2.25,1.26,1.87*06\r\n'
b'$GPGSV,3,1,11,16,64,291,23,20,64,099,25,10,63,025,30,27,49,224,26*7A\r\n'
b'$GPGSV,3,2,11,26,47,341,41,21,35,122,29,51,32,312,31,08,20,234,22*7B\r\n'
b'$GPGSV,3,3,11,15,10,124,18,18,10,283,18,07,02,225,15*4E\r\n'
b'$GPRMC,183536.000,A,384428,S,07236.9232,W,0.00,342.57,160119,,,D*6D\r\n'
b'$GPGGA,183543.000,3844.7528,S,07236.9232,W,2,8,1.09,108.7,M,20.8,M,0000,0000*55\r\n'
b'$GPGSA,A,3,16,10,20,26,27,15,21,08,,,,,25,32,27,49,224,30*7F\r\n'
b'$GPGSV,3,2,11,26,47,341,41,21,35,122,31,51,32,312,30,08,20,234,27*76\r\n'
b'$GPGSV,3,3,11,15,10,124,16,18,10,283,23,07,02,225,16*4B\r\n'
b'$GPRMC,183546.000,A,3844.7528,S,07236.9232,W,0.00,342.57,160119,,,D*69\r\n'
b'3549.000,A,3844.7528,S,07236.9232,W,0.00,342.57,160119,,,D*66\r\n'
b'16,18,10,283,22,07,02,225,14*48\r\n'
b'$GPRMC,183554.000,A,3844.7528,S,07236.9232,W,0.00,342.57,160119,,,D*6A\r\n'
b'$GPGGA,183555.000,3844.7528,S,07236.9232,W,2,8,1.09,108.7,M,20.8,M,0000,0000*52\r\n'
b'$GPGSA,A,3,16,10,20,26,27,15,21,08,,,,,5,10,124,18,18,10,283,20,07,02,225,15*45\r\n'
b'$GPRMC,183559.000,A,3844.7528,S,07236.9232,W,0.00,342.57,160119,,,D*67\r\n'
b'$GPGGA,183600.000,3844.7528,S,07236.9232,W,2,8,1.09,108.7,M,20.8,M,0000,0000*51\r\n'
b'$GPGSA,A,3,16,10,20,26,27,15,21,08,,,,,,20,07,02,225,15*4B\r\n'
b'$GPRMC,183603.000,A,3844.7528,S,07236.9232,W,0.00,342.57,160119,,,D*6B\r\n'
b',A,3,16,10,20,26,27,15,21,08,,,,,1.40,1.09,0.88*05\r\n'
b'$GPGSV,3,1,11,16,64,292,20,20,64,100,28,10,63,025,31,27,\xfc'
None
None
None
None
None
None
None
None
None
None
None
None
None
None
None
None
None
None
None
None
None
None
None
None
None
None
None
None
None
None
None
None
None
None
None
None
None
None
None
None
None
None
None
None
None
None
None
None
None
None
None
None
None
None
None
None
None
None
None
None
None
None
None
None
None
None
None
None
None
None
None
None
None
None
None
None
None
None
None
None
None
None
None
None
None
None
None
None
None
None
None
None
None
None
None
None
None
None
None
None
None
None
None
None
None
None
None
None
None
None
None
None
None
None
None
None
None
None
None
None
None
None
None
None
None
None
None
None
None
None
None
None
None
None
None
None
None
None
None
None
None
b'$PMTK011,MTKGPS*08\r\n'
b'$PMTK010,001*2E\r\n'
b'$PMTK010,002*2D\r\n'
b'$GPGGA,184017.484,,,,,0,0,,,M,,M,,*4B\r\n'
b'$GPGSA,A,1,,,,,,,,,,,,,,,*1E\r\n'
b'$GPGSV,3,1,11,10,65,028,,16,63,296,,20,63,104,,27,51,223,*7C\r\n'
b'$GPGSV,3,2,11,26,45,342,,21,33,121,,08,22,233,,18,11,281,*71\r\n'
b'$GPGSV,3,3,11,15,10,126,,07,02,227,,32,01,023,*,3,11,15,10,126,,07,02,227,,32,01,023,*4A\r\n'
b'$GPRMC,184018.484,V,,,,,0.15,182.57,160119,,,N*42\r\n'
b'$PMTK011,MTKGPS*08\r\n'
b'$PMTK010,0B\r\n'
b'$GPRMC,184027.695,A,3844.7620,S,07236.9227,W,2.78,107.47,160119,,,A*63\r\n'
b'$GPGGA,184028.696,3844.7610,S,07236.9221,W,1,7,1.18,103.5,M,20.8,M,,*5C\r\n'
b'$GPGSA,A,3,16,10,26,08,20,21,27,,,,,,1.50,1.18,2,16,63,297,16,20,63,104,29,27,51,223,26*76\r\n'
b'$GPGSV,3,2,12,26,45,342,29,21,33,121,21,51,32,312,29,08,22,233,27*73\r\n'
b'$GPGSV,3,3,12,18,11,281,,15,10,126,,07,02,227,,32,01,023,*7B\r\n'
b'$GPRMC,184035.000,A,3844.7576,S,07236.9213,W,0.91,107.28,160119184038.000,A,3844.7570,S,07236.9214,W,0.25,105.71,160119,,,A*6C\r\n'
b'$PMTK011,MTKGPS*08\r\n'
b'$PMTK010,001*2E\r\n'
b'$PMTK011,MTKGPS*08\r\n'
b'$PMTK010,001*2E\r\n'
None
None
None
None
None
None
None
None
None
None
None
None
None
None
None
None
None
None
None
None
None
None
None
None
None
None
None
None
None
None
None
None
None
None
None
None
None
None
None
None
None
None
None
None
None
None
None
None
None
None
None
None
None
None
None
None
None
None
None
None
None
None
None
None
None
None
None
None
None
None
None
None
None
None
None
None
None
None
None
None
None
None
None
None
None
None
None
None
None
None
None
None
None
None
None
None
None
None
None
None
None
None
None
None
None
None
None
None
None
None
None
None
None
None
None
None
None
None
None
None
None
None
None
None
b'$PMTK011,MTKGPS*08\r\n'
b'\xfc$PMTK011,MTKGPS*08\r\n'
b'\xfc$PMTK011,MTKGPS*08\r\n'
b'\xe4$PMTK011,MTKGPS*08\r\n'
b'$PMTK010,001*2E\r\n'
b'$PMTK011,MTKGPS*08\r\n'
b'$PMTK010,001*2E\r\n'
b'$PMTK011,MTKGPS*08\r\n'
b'$PMTK010,001*2E\r\n'
b'$PMTK011,MTKGPS*08\r\n'
b'$PMTK010,001*2E\r\n'
b'$PMTK011,MTKGPS*08\r\n'
b'$PMTK010,001*2E\r\n'
b'$PMTK011,MTKGPS*08\r\n'
b'$PMTK010,001*2E\r\n'
b'$PMTK011,MTKGPS*08\r\n'
b'$PMTK010,001*2E\r\n'
b'4,*4E\r\n'
b'$GPRMC,184430.879,V,,,,,0.39,314.38,160119,,,N*48\r\n'
b'A,3844.7553,S,07236.9234,W,0.20,93.74,160119,,,A*5A\r\n'
b'$GPGGA,184452.000,3844.7553,S,07236.9234,W,1,8,1.08,102.3,M,20.8,M,,*55\r\n'
b'$GPGSA,A,3,10,26,27,16,20,21,15,08,,,,,1.39,1.08,0.87*05\r\n'
b'$GPGSV,3,1,12,10,67,032,36,16,62,301,32,20,62,108,24,27,53,221,29*7C\r\n'
b'$GPGSV,3,2,12,26,43,343,41,51,32,312,28GPGSA,A,3,10,26,27,16,20,21,15,08,,,,,1.39,1.08,0.87*05\r\n'
b'$GPGSV,3,1,12,10,67,032,36,16,62,301,34,20,62,108,21,27,53,221,27*71\r\n'
b'$GPGSV,3,2,12,26,42,343,42,51,32,312,,21,31,119,16,08,24,233,21*7E\r\n'
b'$GPGSV,3,3,12,18,13,280,15,15,10,128,27,07,02MTK010,002*2D\r\n'
b'$PMTK011,MTKGPS*08\r\n'
b'$PMTK010,001*2E\r\n'
b'$PMTK010,002*2D\r\n'
b'$PMTK011,MTKGPS*08\r\n'
b'$PMTK010,001*2E\r\n'
b'$PMTK010,002*2D\r\n'
b'$PMTK011,MTKGPS*08\r\n'
b'$PMTK010,001*2E\r\n'
b'$PMTK010,002*2D\r\n'
b'$PMTK011,MTKGPS*08\r\n'
b'$PMTK010,001*2E\r\n'
b'MTK010,001*2E\r\n'
b'$PMTK010,002*2D\r\n'
b'$PMTK011,MTKGPS*08\r\n'
b'$PMTK010,001*2E\r\n'
b'$PMTK010,002*2D\r\n'
b'$PMTK011,MTKGPS*08\r\n'
b'$PMTK010,001*2E\r\n'
b'$PMTK010,002*2D\r\n'
b'$PMTK011,MTKGPS*08\r\n'
b'$PMTK010,001*2E\r\n'
b'$PMTK010,002*2D\r\n'
b'$PMTK011,MTKGPS*08\r\n'
b'$PMTK010,001*2E\r\n'
b'$PMTK010,002*2D\r\n'
b'$PMTK011,MTKGPS*08\r\n'
b'$PMTK010,001*2E\r\n'
b'$PMTK010,002*2D\r\n'
b'.7545,S,07236.9255,W,0.05,216.63,160119,,,A*6C\r\n'
b'$GPGGA,184550.000,3844.7545,S,07236.9252,W,1,8,1.08,102.3,M,20.8,M,,*51\r\n'
b'$GPGSA,A,3,20,26,16,10,08,15,21,27,,,,,1.39,1.08,0.87*05\r\n'
b'$GPGSV,3,1,12,10,67,032,29,20,62,108,31,16,61,302,31,27,53,221,26*7A\r\n'
b'$GPGSV,3,2,12,26,42,343,44,51,32,312,30,18,13,280,,15,10,128,22,07,02,229,,32,02,025,*7D\r\n'
b'$GPRMC,184601.000,A,3844.7551,S,07236.9215,W,0.23,104.68,160119,,,A*6D\r\x8a$PMTK011,MTKGPS*08\r\n'
b'$PMTK010,001*2E\r\n'
b'$PMTK010,002*2D\r\n'
b'$PMTK011,MTKGPS*08\r\n'
b'$PMTK010,001*2E\r\n'
b'$PMTK010,002*2D\r\n'
b'011,MTKGPS*08\r\n'
b'$PMTK010,001*2E\r\n'
b'$PMTK010,002*2D\r\n'
b'$PMTK011,MTKGPS*08\r\n'
b'$PMTK010,001*2E\r\n'
b'$PMTK010,002*2D\r\n'
b'$PMTK011,MTKGPS*08\r\n'
b'$PMTK010,001*2E\r\n'
b'$PMTK010,002*2D\r\n'
b'$PMTK011,MTKGPS*08\r\n'
b'$PMTK010,001*2E\r\n'
b'$PMTK010,002*2D\r\n'
b'11,MTKGPS*08\r\n'
b'$PMTK010,001*2E\r\n'
b'$PMTK010,002*2D\r\n'
b'$PMTK011,MTKGPS*08\r\n'
b'$PMTK010,001*2E\r\n'
b'$PMTK010,002*2D\r\n'
b'$PMTK011,MTKGPS*08\r\n'
b'$PMTK010,001*2E\r\n'
b'$PMTK010,002*2D\r\n'
b'$GPGGA,184631.860,,,,,0,0,,,M,,M,,*4F\r\n'
b'$GPGSA,A,1,,,,,,,,,,,,,,,*1E\r\n'
b'$GPGSV,3,1,11,10,67,033,,16,61,303,,20,61,109,,27,5,08,24,232,32*78\r\n'
b'$GPGSV,3,3,12,18,13,279,,15,10,129,23,32,02,025,,07,01,229,*78\r\n'
b'$GPRMC,184651.000,A,3844.7540,S,07236.9251,W,0.13,211.06,160119,,,A*64\r\n'
b'2,32,02,025,,07,01,229,*79\r\n'
b'$GPRMC,184656.000,A,3844.7541,S,07236.9248,W,0.28,124.27,160119,,,A*64\r\n'
b'2\r\n'
b'$GPGSV,3,2,12,26,41,344,42,51,32,312,31,21,31,119,19,08,24,232,31*77\r\n'
b'$GPGSV,3,3,12,18,13,279,,15,10,129,22,32,02,025,,07,01,229,*79\r\n'
b'$GPRMC,184700.000,A,3844.7542,S,07236.9246,W,0.12,99.73,160119,,,A*54\r\n'
b'.000,A,3844.7542,S,07236.9245,W,0.21,115.05,160119,,,A*60\r\n'
b'56\r\n'
b'$GPGGA,184711.000,3844.7541,S,07236.9247,W,1,8,1.08,102.4,M,20.8,M,,*51\r\n'
b'$GPGSA,A,3,20,10,26,27,08,21,15,16,,,,,1.39,1.08,0.87*05\r\n'
b'$GPGSV,3,1,12,10,67,033,26,16,61,303,28,20,61,109,29,27,54,221,19*7D\r\n'
b'$GPGSV,3,2,12,26,41,344,41,51,32,312,318,25,232,30*7E\r\n'
b'$GPGSV,3,3,12,18,13,279,,15,10,129,23,32,03,025,,07,01,230,*71\r\n'
b'$GPRMC,184717.000,A,3844.7541,S,07236.9247,W,0.00,74.63,160119,,,A*51\r\n'
b'000,A,3844.7541,S,07236.9247,W,0.00,74.63,160119,,,A*55\r\n'
b'$GPGGA,184721.000,3844.7541,S,07236.9247,W,1,8,1.08,102.4,M,20.8,M,,*52\r\n'
b'$GPGSA,A,3,20,10,26,27,08,21,15,16,,,,,1.39,1.0129,23,32,03,025,,07,01,230,*71\r\n'
b'$GPRMC,184725.000,A,3844.7541,S,07236.9247,W,0.00,74.63,160119,,,A*50\r\n'
b'$GPGGA,184726.000,3844.7541,S,07236.9247,W,1,8,1.08,102.4,M,20.8,M,,*55\r\n'
b'$GPGSA,A,3,20,10,26,27,08,21,15,16,,,,,1.39,1.000,3844.7541,S,07236.9247,W,1,8,1.08,102.4,M,20.8,M,,*53\r\n'
b'$GPGSA,A,3,20,10,26,27,08,21,15,16,,,,,1.39,1.08,0.87*05\r\n'
b'$GPGSV,3,1,12,10,68,034,28,16,61,303,29,20,61,110,27,27,54,221,19*7C\r\n'
b'$GPGSV,3,2,12,26,41,344,39,51,32,312,29,21,31,119,19,074.63,160119,,,A*53\r\n'
b'$GPGGA,184738.000,3844.7541,S,07236.9247,W,1,8,1.08,102.4,M,20.8,M,,*5A\r\n'
b'$GPGSA,A,3,20,10,26,27,08,21,15,16,,,,,1.39,1.08,0.87*05\r\n'
b'$GPGSV,3,1,12,10,68,034,26,16,61,303,29,20,61,110,26,27,54,221,24*7D\r\n'
b'$GPGSV,3,2,12,26,41,344,39,51,32,312,3039.000,A,3844.7541,S,07236.9247,W,0.00,74.63,160119,,,A*5D\r\n'
b',15,10,129,23,32,03,025,,07,01,230,17*77\r\n'
b'$GPRMC,184744.000,A,3844.7541,S,07236.9247,W,0.00,74.63,160119,,,D*52\r\n'
b'$GPGGA,184745.000,3844.7541,S,07236.9247,W,2,8,1.08,102.4,M,20.8,M,0000,0000*53\r\n'
b'$GPGSA,A,3,20,10,26,27,08,21,15,16,,,,,.00,74.63,160119,,,D*5F\r\n'
b'$GPGGA,184750.000,3844.7541,S,07236.9247,W,2,8,1.08,102.4,M,20.8,M,0000,0000*57\r\n'
b'$GPGSA,A,3,20,10,26,27,08,21,15,16,,,,,MC,184751.000,A,3844.7541,S,07236.9247,W,0.00,74.63,160119,,,D*56\r\n'
b',160119,,,D*51\r\n'
b'$GPGGA,184757.000,3844.7541,S,07236.9247,W,2,8,1.08,102.4,M,20.8,M,0000,0000*50\r\n'
b'$GPGSA,A,3,20,10,26,27,08,21,15,16,,,,,1.38,1.08,0.87*04\r\n'
b'$GPGSV,3,1,12,10,68,034,28,16,61,304,28,20,61,110,21,27,54,221,29*7F\r\n'
b'$GPGSV,3,2,12,26,41,344,38,51,3*72\r\n'
b'$GPRMC,184758.000,A,3844.7541,S,07236.9247,W,0.00,74.63,160119,,,D*5F\r\n'
b',160119,,,D*5E\r\n'
b'$GPGGA,184804.000,3844.7541,S,07236.9247,W,2,8,1.08,102.4,M,20.8,M,0000,0000*59\r\n'
b'$GPGSA,A,3,20,10,26,27,08,21,15,16,,,,,.00,74.63,160119,,,D*55\r\n'
b'$GPGGA,184809.000,3844.7541,S,07236.9247,W,2,8,1.08,102.4,M,20.8,M,0000,0000*54\r\n'
b'$GPGSA,A,3,20,10,26,27,08,21,15,16,,,,,,31,16,61,304,23,20,61,110,22,27,55,221,29*7E\r\n'
b'$GPGSV,3,2,12,26,41,344,38,51,32,312,29,21,30,119,28,08,25,232,30*70\r\n'
b'$GP25,,07,01,230,14*71\r\n'
b'$GPRMC,184815.000,A,3844.7541,S,07236.9247,W,0.00,74.63,160119,,,D*59\r\n'
b'$GPGGA,184816.000,3844.7541,S,07236.9247,W,2,8,1.08,102.4,M,20.8,M,0000,0000*5A\r\n'
b'$GPGSA,A,3,20,10,26,27,08,21,15,16,,,,,,26,41,344,38,51,32,312,29,21,30,119,26,08,25,232,31*7F\r\n'
b'$GPGSV,3,3,12,18,14,279,,15,10,129,30,32,03,025,,07,01,230,*74\r10,68,034,33,16,61,304,21,20,61,110,22,27,55,221,24*73\r\n'
b'$GPGSV,3,2,12,26,41,344,38,51,32,312,29,21,30,119,22,08,25,232,31*7B\r\n'
b'$GPGSV,3,3,12,18,14,279,,15,10,129,29,32,03,025,,07,01,230,*7C\r\n'
b'$GPRMC,184824.000,A,3844.7541,S,07236.9247,W,0.00,4.7541,S,07236.9247,W,0.00,74.63,160119,,,D*5A\r\n'
b',10,129,29,32,03,025,,07,01,230,16*7B\r\n'
b'$GPRMC,184829.000,A,3844.7541,S,07236.9247,W,0.00,74.63,160119,,,D*56\r\n'
b'$GPGGA,184830.000,3844.7541,S,07236.9247,W,2,8,1.08,102.4,M,20.8,M,0000,0000*5E\r\n'
b'$GPGSA,A,3,20,10,26,27,08,21,15,16,,,,,7236.9247,W,0.00,74.63,160119,,,D*5E\r\n'
b'$GPGGA,184831.000,3844.7541,S,07236.9247,W,2,8,1.08,102.4,M,20.8,M,0000,0000*5F\r\n'
b'$,0000,0000*58\r\n'
b'$GPGSA,A,3,20,10,26,27,08,21,15,16,,,,,1.38,1.08,0.87*04\r\n'
b'$GPGSV,3,1,12,10,68,035,35,16,61,304,21,20,61,1279,,15,10,129,28,32,03,025,,07,01,230,16*7A\r\n'
b'$GPRMC,184841.000,A,3844.7541,S,07236.9247,W,0.00,74.63,160119,,,D*58\r\n'
b'$GPGGA,184842.000,3844.7541,S,07236.9247,W,2,8,1.08,102.4,M,20.8,M,0000,0000*5B\r\n'
b'$GPGSA,A,3,20,10,26,27,08,21,15,16,,,,,,W,0.00,74.63,160119,,,D*5F\r\n'
b'$GPGGA,184847.000,3844.7541,S,07236.9247,W,2,8,1.08,102.4,M,20.8,M,0000,0000*5E\r\n'
b'$GPGSA,A,3,20,10,26,27,08,21,15,16,,,,,,3,20,10,26,27,08,21,15,16,,,,,1.38,1.08,0.87*04\r\n'
b'$GPGSV,3,1,12,10,68,035,36,16,61,304,19,20,61,111,23,27,55,220,31*79\r\n'
b'9,26,32,03,025,18,07,01,230,15*7E\r\n'
b'$GPRMC,184853.000,A,3844.7541,S,07236.9247,W,0.00,74.63,160119,,,D*5B\r\n'
b'$GPGGA,184854.000,3844.7541,S,07236.9247,W,2,8,1.08,102.4,M,20.8,M,0000,0000*5C\r\n'
